[
    {
		"location": "CSULB Beach Building Services",
		"city": "Long Beach",
		"state": "California",
		"coordinates": [-118.108063,33.783249]
	},
	{
		"location": "CSULB University Library",
		"city": "Long Beach",
		"state": "California",
		"coordinates": [-118.122270,33.781990]
	},
	{
		"location": "University Student Union",
		"city": "Long Beach",
		"state": "California",
		"coordinates": [-118.122276,33.781818]
	},
	{
		"location": "Richard and Karen Carpenter Performing Arts Center",
		"city": "Long Beach",
		"state": "California",
		"coordinates": [-118.1117423231468,33.788226226976285]
	},
	{
		"location": "Martha B. Knoebel Dance Theatre",
		"city": "Long Beach",
		"state": "California",
		"coordinates": [-118.11318183620119,33.78821935124322]
	},
	{
		"location": "Walter Pyramid",
		"city": "Long Beach",
		"state": "California",
		"coordinates": [-118.11438143041318,33.787469893030575]
	},
	{
		"location": "CSULB Student Health Services",
		"city": "Long Beach",
		"state": "California",
		"coordinates": [-118.11787786623367,33.78234354289831]
	},
	{
		"location": "CSULB School of Nursing",
		"city": "Long Beach",
		"state": "California",
		"coordinates": [-118.11781220288536,33.781650418850546]
	},
	{
		"location": "CSULB Family and Consumer Services",
		"city": "Long Beach",
		"state": "California",
		"coordinates": [-118.11606555782035,33.78167770730496]
	},
	{
		"location": "CSULB Horn Center",
		"city": "Long Beach",
		"state": "California",
		"coordinates": [-118.11404500988814,33.78340952845532]
	},
	{
		"location": "CSULB University Police Station",
		"city": "Long Beach",
		"state": "California",
		"coordinates": [-118.10920693119864,33.784329852984335]
	},
	{
		"location": "CSULB Student Recreation and Wellness Center",
		"city": "Long Beach",
		"state": "California",
		"coordinates": [-118.1093394060906,33.7851575997318]
	},
	{
		"location": "CSULB Mailing Services",
		"city": "Long Beach",
		"state": "California",
		"coordinates": [-118.10924553876404,33.78334944943123]
	},
	{
		"location": "CSULB Human Services and Design",
		"city": "Long Beach",
		"state": "California",
		"coordinates": [-118.1095878784254,33.78276202181796]
	},
	{
		"location": "CSULB Design Center",
		"city": "Long Beach",
		"state": "California",
		"coordinates": [-118.10956027038979,33.782009374305275]
	},
	{
		"location": "CSULB Central Plant",
		"city": "Long Beach",
		"state": "California",
		"coordinates": [-118.1122212923896,33.781683462500006]
	},
	{
		"location": "CSULB Kinesiology Building",
		"city": "Long Beach",
		"state": "California",
		"coordinates": [-118.11223986478913,33.78267526328235]
	},
	{
		"location": "CSULB Psychology Building",
		"city": "Long Beach",
		"state": "California",
		"coordinates": [-118.11428494247951,33.779257184449015]
	},
	{
		"location": "CSULB Department of Asian and Asian American Studies",
		"city": "Long Beach",
		"state": "California",
		"coordinates": [-118.11369413048553,33.779192931681585]
	},
	{
		"location": "CSULB College of Liberal Arts",
		"city": "Long Beach",
		"state": "California",
		"coordinates": [-118.1140969779595,33.777779181811226]
	},
	{
		"location": "CSULB Peterson Hall 1",
		"city": "Long Beach",
		"state": "California",
		"coordinates": [-118.1126503168153,33.77880264776819]
	},
	{
		"location": "CSULB Fine Arts Building 3",
		"city": "Long Beach",
		"state": "California",
		"coordinates": [-118.11239632287395,33.77782966696578]
	},
	{
		"location": "CSULB Fine Arts Building 1",
		"city": "Long Beach",
		"state": "California",
		"coordinates": [-118.11263927360045,33.777219253556524]
	},
	{
		"location": "CSULB Liberal Arts 1",
		"city": "Long Beach",
		"state": "California",
		"coordinates": [-118.11487499275916,33.77767239333733]
	},
	{
		"location": "CSULB Education Psychology Clinc",
		"city": "Long Beach",
		"state": "California",
		"coordinates": [-118.11414097194172,33.77575763688348]
	},
	{
		"location": "CSULB Fine Arts Building 4",
		"city": "Long Beach",
		"state": "California",
		"coordinates": [-118.11263492499057,33.77835927331352]
	},
    {
        "location": "200 Aquarium Way, Long Beach, CA 90802",
        "city": "Long Beach",
		"state": "California",
        "coordinates": [-118.19437030893667,33.76504573922812]
	},
    {
		"location": "Long Beach, CA 90802",
		"city": "Long Beach",
		"state": "California",
		"coordinates": [-118.18889186234966,33.74685825737537]
	},
    {
		"location": "435 Shoreline Village Drive",
		"city": "Long Beach",
		"state": "California",
		"coordinates": [-118.18911575585796,33.75814311424992]
	},
    {
		"location": "87 Aquarium Way",
		"city": "Long Beach",
		"state": "California",
		"coordinates": [-118.19542431145203,33.76353053660642]
	},
    {
		"location": "45 Aquarium Way",
		"city": "Long Beach",
		"state": "California",
		"coordinates": [-118.19426559720151,
        33.76545708226686]
	},
    {
		"location": "123-111 E 1st St",
		"city": "Long Beach",
		"state": "California",
		"coordinates": [-118.1920351620609,
        33.76862823537515]
	},
    {
		"location": "98 S 8th Pl",
		"city": "Long Beach",
		"state": "California",
		"coordinates": [-118.17516293630433,
        33.76489469568639]
	},
    {
		"location": "2500-2698 E Ocean Blvd",
		"city": "Long Beach",
		"state": "California",
		"coordinates": [-118.16308533585271,
        33.76262422039733]
	},
    {
		"location": "3100-3298 E Ocean Blvd",
		"city": "Long Beach",
		"state": "California",
		"coordinates": [-118.15442702921463,
        33.76208498187518]
	},
    {
		"location": "5000 E Ocean Blvd",
		"city": "Long Beach",
		"state": "California",
		"coordinates": [-118.13932082861517,
        33.75680450864272]
	},
    {
		"location": "87 Claremont Pl",
		"city": "Long Beach",
		"state": "California",
		"coordinates": [-118.13425681866829,
        33.75366461356584]
	},
    {
		"location": "14 54th Pl",
		"city": "Long Beach",
		"state": "California",
		"coordinates": [-118.13183988290496,
        33.7540845912068]
	},
    {
		"location": "5417 E Ocean Blvd",
		"city": "Long Beach",
		"state": "California",
		"coordinates": [-118.13150728899971,
        33.753709938794856]
	},
    {
		"location": "5415 E Ocean Blvd,",
		"city": "Long Beach",
		"state": "California",
		"coordinates": [-118.13112105091618,
        33.75358505429371]
	},
    {
		"location": "194 Bay Shore Ave",
		"city": "Long Beach",
		"state": "California",
		"coordinates": [-118.13016618457398,
        33.75861597170191]
	},
    {
		"location": "5255 E Paoli Way",
		"city": "Long Beach",
		"state": "California",
		"coordinates": [-118.1338139888131,
        33.770103910119985]
	},
    {
		"location": "736 Park Ave #700",
		"city": "Long Beach",
		"state": "California",
		"coordinates": [-118.1373759622678,
        33.77584730186235]
	},
    {
		"location": "5355 E Eliot St",
		"city": "Long Beach",
		"state": "California",
		"coordinates": [-118.12825186545643,
        33.76871410028135]
	},
    {
		"location": "San Gabriel River Mid Trail",
		"city": "Lakewood",
		"state": "California",
		"coordinates": [-118.09663350211349,
        33.84249164820199]
	},
    {
		"location": "San Gabriel River Mid Trail",
		"city": "Cerritos",
		"state": "California",
		"coordinates": [-118.10152735468246,
        33.85582788916204]
	},
    {
		"location": "Lakewood Center near the Burger King",
		"city": "Lakewood",
		"state": "California",
		"coordinates": [-118.14023359807908,
        33.852166839413336]
	},
    {
		"location": "12305 207th St",
		"city": "Lakewood",
		"state": "California",
		"coordinates": [-118.07009884811184,
        33.84279090843893]
	},
    {
		"location": "Roaring Twenties, located inside Knott's Berry Farm",
		"city": "Buena Park",
		"state": "California",
		"coordinates": [-118.00214529966759,
        33.843871217435485]
	},
    {
		"location": "Located inside Knott's Berry Farm",
		"city": "Buena Park",
		"state": "California",
		"coordinates": [-118.00207720729983,
        33.84592384802676]
	},
    {
		"location": "Located inside Knott's Berry Farm",
		"city": "Buena Park",
		"state": "California",
		"coordinates": [-118.00077512499654,
        33.84512278555493]
	},
    {
		"location": "Located inside Knott's Berry Farm",
		"city": "Buena Park",
		"state": "California",
		"coordinates": [-117.99924799143095,
        33.84613746341745]
	},
    {
		"location": "Located inside Knott's Berry Farm",
		"city": "Buena Park",
		"state": "California",
		"coordinates": [-117.99833171129157,
        33.84576363613322]
	}
]